{"totalResultsCount":14897,"geonames":[{"lng":"24.93545","geonameId":658225,"countryCode":"FI","name":"Helsingfors","toponymName":"Helsinki","lat":"60.16952","fcl":"P","fcode":"PPLC"},{"lng":"22.26869","geonameId":633679,"countryCode":"FI","name":"Ã…bo","toponymName":"Turku","lat":"60.45148","fcl":"P","fcode":"PPLA"},{"lng":"23.78712","geonameId":634963,"countryCode":"FI","name":"Tammerfors","toponymName":"Tampere","lat":"61.49911","fcl":"P","fcode":"PPLA"},{"lng":"24.6522","geonameId":660158,"countryCode":"FI","name":"Esbo","toponymName":"Espoo","lat":"60.2052","fcl":"P","fcode":"PPLA3"},{"lng":"25.66151","geonameId":649360,"countryCode":"FI","name":"Lahtis","toponymName":"Lahti","lat":"60.98267","fcl":"P","fcode":"PPLA"},{"lng":"27.67703","geonameId":650224,"countryCode":"FI","name":"Kuopio","toponymName":"Kuopio","lat":"62.89238","fcl":"P","fcode":"PPLA"}]}