{"totalResultsCount":12,"geonames":[{"adminCode1":"16","lng":"15.62157","geonameId":2694762,"toponymName":"Linköping","countryId":"2661886","fcl":"P","population":106502,"countryCode":"SE","name":"Linköping","fclName":"city, village,...","adminCodes1":{"ISO3166_2":"E"},"countryName":"Sweden","fcodeName":"seat of a first-order administrative division","adminName1":"Östergötland","lat":"58.41086","fcode":"PPLA"},{"adminCode1":"16","lng":"16.1826","geonameId":2688368,"toponymName":"Norrköping","countryId":"2661886","fcl":"P","population":93765,"countryCode":"SE","name":"Norrköping","fclName":"city, village,...","adminCodes1":{"ISO3166_2":"E"},"countryName":"Sweden","fcodeName":"seat of a second-order administrative division","adminName1":"Östergötland","lat":"58.59419","fcode":"PPLA2"},{"adminCode1":"16","lng":"15.03649","geonameId":2690960,"toponymName":"Motala","countryId":"2661886","fcl":"P","population":30944,"countryCode":"SE","name":"Motala","fclName":"city, village,...","adminCodes1":{"ISO3166_2":"E"},"countryName":"Sweden","fcodeName":"seat of a second-order administrative division","adminName1":"Östergötland","lat":"58.53706","fcode":"PPLA2"},{"adminCode1":"16","lng":"14.88969","geonameId":2665902,"toponymName":"Vadstena","countryId":"2661886","fcl":"P","population":5674,"countryCode":"SE","name":"Vadstena","fclName":"city, village,...","adminCodes1":{"ISO3166_2":"E"},"countryName":"Sweden","fcodeName":"seat of a second-order administrative division","adminName1":"Östergötland","lat":"58.44863","fcode":"PPLA2"},{"adminCode1":"16","lng":"15.12365","geonameId":2691743,"toponymName":"Mjölby","countryId":"2661886","fcl":"P","population":12858,"countryCode":"SE","name":"Mjölby","fclName":"city, village,...","adminCodes1":{"ISO3166_2":"E"},"countryName":"Sweden","fcodeName":"seat of a second-order administrative division","adminName1":"Östergötland","lat":"58.32595","fcode":"PPLA2"},{"adminCode1":"16","lng":"16.18333","geonameId":2727594,"toponymName":"Åby","countryId":"2661886","fcl":"P","population":6917,"countryCode":"SE","name":"Åby","fclName":"city, village,...","adminCodes1":{"ISO3166_2":"E"},"countryName":"Sweden","fcodeName":"populated place","adminName1":"Östergötland","lat":"58.66667","fcode":"PPL"},{"adminCode1":"16","lng":"15.76739","geonameId":2714903,"toponymName":"Finspång","countryId":"2661886","fcl":"P","population":12807,"countryCode":"SE","name":"Finspång","fclName":"city, village,...","adminCodes1":{"ISO3166_2":"E"},"countryName":"Sweden","fcodeName":"seat of a second-order administrative division","adminName1":"Östergötland","lat":"58.70578","fcode":"PPLA2"},{"adminCode1":"16","lng":"16.36741","geonameId":2699206,"toponymName":"Krokek","countryId":"2661886","fcl":"P","population":5053,"countryCode":"SE","name":"Krokek","fclName":"city, village,...","adminCodes1":{"ISO3166_2":"E"},"countryName":"Sweden","fcodeName":"populated place","adminName1":"Östergötland","lat":"58.67231","fcode":"PPL"},{"adminCode1":"16","lng":"16.32221","geonameId":2676215,"toponymName":"Söderköping","countryId":"2661886","fcl":"P","population":7418,"countryCode":"SE","name":"Söderköping","fclName":"city, village,...","adminCodes1":{"ISO3166_2":"E"},"countryName":"Sweden","fcodeName":"seat of a second-order administrative division","adminName1":"Östergötland","lat":"58.48057","fcode":"PPLA2"},{"adminCode1":"16","lng":"15.51647","geonameId":2692943,"toponymName":"Malmslätt","countryId":"2661886","fcl":"P","population":5074,"countryCode":"SE","name":"Malmslätt","fclName":"city, village,...","adminCodes1":{"ISO3166_2":"E"},"countryName":"Sweden","fcodeName":"populated place","adminName1":"Östergötland","lat":"58.41102","fcode":"PPL"},{"adminCode1":"16","lng":"15.5","geonameId":2694529,"toponymName":"Ljungsbro","countryId":"2661886","fcl":"P","population":6763,"countryCode":"SE","name":"Ljungsbro","fclName":"city, village,...","adminCodes1":{"ISO3166_2":"E"},"countryName":"Sweden","fcodeName":"populated place","adminName1":"Östergötland","lat":"58.51667","fcode":"PPL"},{"adminCode1":"16","lng":"15.9977","geonameId":2724321,"toponymName":"Åtvidaberg","countryId":"2661886","fcl":"P","population":7014,"countryCode":"SE","name":"Åtvidaberg","fclName":"city, village,...","adminCodes1":{"ISO3166_2":"E"},"countryName":"Sweden","fcodeName":"seat of a second-order administrative division","adminName1":"Östergötland","lat":"58.20152","fcode":"PPLA2"}]}
